[
  {
    "name": "Manipal Hospital Old Airport Road",
    "lat": 12.9602,
    "lng": 77.6449,
    "capability_score": 9,
    "specialty": "Level 1 Trauma"
  },
  {
    "name": "St. John's Medical College Hospital",
    "lat": 12.9348,
    "lng": 77.6189,
    "capability_score": 8,
    "specialty": "Multi-specialty"
  },
  {
    "name": "Apollo Hospitals Jayanagar",
    "lat": 12.9238,
    "lng": 77.5855,
    "capability_score": 7,
    "specialty": "Cardiology & Trauma"
  },
  {
    "name": "Fortis Hospital Cunningham Road",
    "lat": 12.9886,
    "lng": 77.5937,
    "capability_score": 8,
    "specialty": "Orthopaedics & Critical Care"
  },
  {
    "name": "Aster CMI Hospital Hebbal",
    "lat": 13.0617,
    "lng": 77.5901,
    "capability_score": 9,
    "specialty": "Emergency Care"
  }
]
